[
  {
    "id": "1725321600000",
    "name": "John Doe",
    "email": "john@example.com",
    "location": "New York",
    "coordinates": {
      "lat": 40.7128,
      "lng": -74.006
    },
    "timestamp": "2024-09-02T16:00:00.000Z"
  },
  {
    "id": "1725325200000",
    "name": "Jane Smith",
    "email": "jane@example.com",
    "location": "London",
    "coordinates": {
      "lat": 51.5074,
      "lng": -0.1278
    },
    "timestamp": "2024-09-02T17:00:00.000Z"
  },
  {
    "id": "1725328800000",
    "name": "Akira Tanaka",
    "email": "akira@example.com",
    "location": "Tokyo",
    "coordinates": {
      "lat": 35.6762,
      "lng": 139.6503
    },
    "timestamp": "2024-09-02T18:00:00.000Z"
  },
  {
    "id": "1756827553141",
    "name": "Samarth",
    "email": "samal026@umn.edu",
    "location": "France",
    "coordinates": {
      "lat": 46.6034,
      "lng": 1.8883
    },
    "timestamp": "2025-09-02T15:39:13.141Z"
  },
  {
    "id": "1756827609151",
    "name": "Dhyan Thakkar",
    "email": "thakk100@umn.edu",
    "location": "Ahmedabad, India",
    "coordinates": {
      "lat": 23.0225,
      "lng": 72.5714
    },
    "timestamp": "2025-09-02T15:40:09.151Z"
  },
  {
    "id": "1756830275878",
    "name": "Dhyan",
    "email": "thakk100@umn.edu",
    "location": "Minneapolis",
    "coordinates": {
      "lat": 44.9778,
      "lng": -93.265
    },
    "timestamp": "2025-09-02T16:24:35.878Z"
  },
  {
    "id": "1756830311668",
    "name": "Elizabeth",
    "email": "eli@umn.edu",
    "location": "London, UK",
    "coordinates": {
      "lat": 51.5074,
      "lng": -0.1278
    },
    "timestamp": "2025-09-02T16:25:11.668Z"
  }
]